{ "type": "FeatureCollection", "features": [ {"type": "Feature", "geometry": {"type":"Point","coordinates":[-120.466789245605,34.6656112670898]}, "properties": {"gid":"1","FEATURE":"Airport","FIPS":"06083","NAME":"Lompoc","AREA":"0","COUNTY":"Santa Barbara County","PERIMETER":"0","LOCID":"LPC","STATE_FIPS":"06","AIRPRTX020":"209","STATE":"CA","TOT_ENP":"941","the_geom":"0101000000000000E0DF1D5EC0000000C032554140"}},{"type": "Feature", "geometry": {"type":"Point","coordinates":[-120.576835632324,34.7297019958496]}, "properties": {"gid":"2","FEATURE":"Airport","FIPS":"06083","NAME":"Vandenberg Air Force Base","AREA":"0","COUNTY":"Santa Barbara County","PERIMETER":"0","LOCID":"VBG","STATE_FIPS":"06","AIRPRTX020":"210","STATE":"CA","TOT_ENP":"655","the_geom":"0101000000000000E0EA245EC0000000E0665D4140"}},{"type": "Feature", "geometry": {"type":"Point","coordinates":[-117.280220031738,33.1282234191895]}, "properties": {"gid":"3","FEATURE":"Airport","FIPS":"06073","NAME":"McClellan-Palomar","AREA":"0","COUNTY":"San Diego County","PERIMETER":"0","LOCID":"CRQ","STATE_FIPS":"06","AIRPRTX020":"143","STATE":"CA","TOT_ENP":"78364","the_geom":"010100000000000020EF515DC0000000A069904040"}},{"type": "Feature", "geometry": {"type":"Point","coordinates":[-124.236534118652,41.780158996582]}, "properties": {"gid":"4","FEATURE":"Airport","FIPS":"06015","NAME":"Jack McNamara Field","AREA":"0","COUNTY":"Del Norte County","PERIMETER":"0","LOCID":"CEC","STATE_FIPS":"06","AIRPRTX020":"478","STATE":"CA","TOT_ENP":"12289","the_geom":"010100000000000060230F5FC000000040DCE34440"}},{"type": "Feature", "geometry": {"type":"Point","coordinates":[-120.457580566406,34.8992500305176]}, "properties": {"gid":"5","FEATURE":"Airport","FIPS":"06083","NAME":"Santa Maria Public\/Captain G. Allan Hancock Field","AREA":"0","COUNTY":"Santa Barbara County","PERIMETER":"0","LOCID":"SMX","STATE_FIPS":"06","AIRPRTX020":"211","STATE":"CA","TOT_ENP":"44591","the_geom":"010100000000000000491D5EC0000000A01A734140"}},{"type": "Feature", "geometry": {"type":"Point","coordinates":[-117.127975463867,33.576057434082]}, "properties": {"gid":"6","FEATURE":"Airport","FIPS":"06065","NAME":"French Valley","AREA":"0","COUNTY":"Riverside County","PERIMETER":"0","LOCID":"F70","STATE_FIPS":"06","AIRPRTX020":"144","STATE":"CA","TOT_ENP":"3528","the_geom":"0101000000000000C030485DC000000040BCC94040"}},{"type": "Feature", "geometry": {"type":"Point","coordinates":[-120.642395019531,35.2370567321777]}, "properties": {"gid":"7","FEATURE":"Airport","FIPS":"06079","NAME":"San Luis Obispo County-McChesney Field","AREA":"0","COUNTY":"San Luis Obispo County","PERIMETER":"0","LOCID":"SBP","STATE_FIPS":"06","AIRPRTX020":"212","STATE":"CA","TOT_ENP":"147028","the_geom":"0101000000000000001D295EC0000000E0579E4140"}},{"type": "Feature", "geometry": {"type":"Point","coordinates":[-117.868225097656,33.6756591796875]}, "properties": {"gid":"8","FEATURE":"Airport","FIPS":"06059","NAME":"John Wayne Airport-Orange County","AREA":"0","COUNTY":"Orange County","PERIMETER":"0","LOCID":"SNA","STATE_FIPS":"06","AIRPRTX020":"145","STATE":"CA","TOT_ENP":"3739970","the_geom":"01010000000000000091775DC0000000007CD64040"}},{"type": "Feature", "geometry": {"type":"Point","coordinates":[-121.842948913574,36.5869827270508]}, "properties": {"gid":"9","FEATURE":"Airport","FIPS":"06053","NAME":"Monterey Peninsula","AREA":"0","COUNTY":"Monterey County","PERIMETER":"0","LOCID":"MRY","STATE_FIPS":"06","AIRPRTX020":"280","STATE":"CA","TOT_ENP":"258605","the_geom":"0101000000000000E0F2755EC000000040224B4240"}},{"type": "Feature", "geometry": {"type":"Point","coordinates":[-119.056770324707,35.4335975646973]}, "properties": {"gid":"10","FEATURE":"Airport","FIPS":"06029","NAME":"Meadows Field","AREA":"0","COUNTY":"Kern County","PERIMETER":"0","LOCID":"BFL","STATE_FIPS":"06","AIRPRTX020":"213","STATE":"CA","TOT_ENP":"147142","the_geom":"010100000000000020A2C35DC00000002080B74140"}},{"type": "Feature", "geometry": {"type":"Point","coordinates":[-117.259483337402,33.8805732727051]}, "properties": {"gid":"11","FEATURE":"Airport","FIPS":"06065","NAME":"March Field","AREA":"0","COUNTY":"Riverside County","PERIMETER":"0","LOCID":"RIV","STATE_FIPS":"06","AIRPRTX020":"146","STATE":"CA","TOT_ENP":"7094","the_geom":"0101000000000000609B505DC0000000A0B6F04040"}},{"type": "Feature", "geometry": {"type":"Point","coordinates":[-121.929008483887,37.3618621826172]}, "properties": {"gid":"12","FEATURE":"Airport","FIPS":"06085","NAME":"San Jose International","AREA":"0","COUNTY":"Santa Clara County","PERIMETER":"0","LOCID":"SJC","STATE_FIPS":"06","AIRPRTX020":"281","STATE":"CA","TOT_ENP":"5582360","the_geom":"0101000000000000E0747B5EC00000008051AE4240"}},{"type": "Feature", "geometry": {"type":"Point","coordinates":[-117.829513549805,35.6588439941406]}, "properties": {"gid":"13","FEATURE":"Airport","FIPS":"06029","NAME":"Inyokern","AREA":"0","COUNTY":"Kern County","PERIMETER":"0","LOCID":"IYK","STATE_FIPS":"06","AIRPRTX020":"214","STATE":"CA","TOT_ENP":"9089","the_geom":"0101000000000000C016755DC00000000055D44140"}},{"type": "Feature", "geometry": {"type":"Point","coordinates":[-118.151611328125,33.8177223205566]}, "properties": {"gid":"14","FEATURE":"Airport","FIPS":"06037","NAME":"Long Beach\/Daugherty Field","AREA":"0","COUNTY":"Los Angeles County","PERIMETER":"0","LOCID":"LGB","STATE_FIPS":"06","AIRPRTX020":"147","STATE":"CA","TOT_ENP":"455927","the_geom":"010100000000000000B4895DC000000020ABE84040"}},{"type": "Feature", "geometry": {"type":"Point","coordinates":[-116.506256103516,33.829216003418]}, "properties": {"gid":"15","FEATURE":"Airport","FIPS":"06065","NAME":"Palm Springs International","AREA":"0","COUNTY":"Riverside County","PERIMETER":"0","LOCID":"PSP","STATE_FIPS":"06","AIRPRTX020":"148","STATE":"CA","TOT_ENP":"645926","the_geom":"01010000000000008066205DC0000000C023EA4040"}},{"type": "Feature", "geometry": {"type":"Point","coordinates":[-120.513885498047,37.2847290039063]}, "properties": {"gid":"16","FEATURE":"Airport","FIPS":"06047","NAME":"Merced Municipal\/MacReady Field","AREA":"0","COUNTY":"Merced County","PERIMETER":"0","LOCID":"MCE","STATE_FIPS":"06","AIRPRTX020":"282","STATE":"CA","TOT_ENP":"3879","the_geom":"010100000000000080E3205EC00000000072A44240"}},{"type": "Feature", "geometry": {"type":"Point","coordinates":[-122.812881469727,38.508975982666]}, "properties": {"gid":"17","FEATURE":"Airport","FIPS":"06097","NAME":"Sonoma County","AREA":"0","COUNTY":"Sonoma County","PERIMETER":"0","LOCID":"STS","STATE_FIPS":"06","AIRPRTX020":"351","STATE":"CA","TOT_ENP":"30066","the_geom":"01010000000000004006B45EC00000002026414340"}},{"type": "Feature", "geometry": {"type":"Point","coordinates":[-121.786491394043,38.5314636230469]}, "properties": {"gid":"18","FEATURE":"Airport","FIPS":"06113","NAME":"University","AREA":"0","COUNTY":"Yolo County","PERIMETER":"0","LOCID":"0O5","STATE_FIPS":"06","AIRPRTX020":"352","STATE":"CA","TOT_ENP":"441","the_geom":"0101000000000000E055725EC00000000007444340"}},{"type": "Feature", "geometry": {"type":"Point","coordinates":[-121.590766906738,38.6954231262207]}, "properties": {"gid":"19","FEATURE":"Airport","FIPS":"06067","NAME":"Sacramento International","AREA":"0","COUNTY":"Sacramento County","PERIMETER":"0","LOCID":"SMF","STATE_FIPS":"06","AIRPRTX020":"353","STATE":"CA","TOT_ENP":"3783570","the_geom":"010100000000000020CF655EC0000000A003594340"}},{"type": "Feature", "geometry": {"type":"Point","coordinates":[-119.995338439941,38.8938827514648]}, "properties": {"gid":"20","FEATURE":"Airport","FIPS":"06017","NAME":"Lake Tahoe","AREA":"0","COUNTY":"El Dorado County","PERIMETER":"0","LOCID":"TVL","STATE_FIPS":"06","AIRPRTX020":"354","STATE":"CA","TOT_ENP":"12843","the_geom":"0101000000000000A0B3FF5DC0000000C06A724340"}},{"type": "Feature", "geometry": {"type":"Point","coordinates":[-121.082077026367,38.9547691345215]}, "properties": {"gid":"21","FEATURE":"Airport","FIPS":"06061","NAME":"Auburn Municipal","AREA":"0","COUNTY":"Placer County","PERIMETER":"0","LOCID":"AUN","STATE_FIPS":"06","AIRPRTX020":"355","STATE":"CA","TOT_ENP":"803","the_geom":"0101000000000000C040455EC0000000E0357A4340"}},{"type": "Feature", "geometry": {"type":"Point","coordinates":[-124.108619689941,40.9781150817871]}, "properties": {"gid":"22","FEATURE":"Airport","FIPS":"06023","NAME":"Arcata","AREA":"0","COUNTY":"Humboldt County","PERIMETER":"0","LOCID":"ACV","STATE_FIPS":"06","AIRPRTX020":"430","STATE":"CA","TOT_ENP":"111071","the_geom":"0101000000000000A0F3065FC0000000E0327D4440"}},{"type": "Feature", "geometry": {"type":"Point","coordinates":[-122.293403625488,40.5089836120605]}, "properties": {"gid":"23","FEATURE":"Airport","FIPS":"06089","NAME":"Redding Municipal","AREA":"0","COUNTY":"Shasta County","PERIMETER":"0","LOCID":"RDD","STATE_FIPS":"06","AIRPRTX020":"431","STATE":"CA","TOT_ENP":"74606","the_geom":"010100000000000020C7925EC00000006026414440"}},{"type": "Feature", "geometry": {"type":"Point","coordinates":[-119.840370178223,34.426212310791]}, "properties": {"gid":"24","FEATURE":"Airport","FIPS":"06083","NAME":"Santa Barbara Municipal","AREA":"0","COUNTY":"Santa Barbara County","PERIMETER":"0","LOCID":"SBA","STATE_FIPS":"06","AIRPRTX020":"173","STATE":"CA","TOT_ENP":"407737","the_geom":"0101000000000000A0C8F55DC0000000208E364140"}},{"type": "Feature", "geometry": {"type":"Point","coordinates":[-118.408073425293,33.9425354003906]}, "properties": {"gid":"25","FEATURE":"Airport","FIPS":"06037","NAME":"Los Angeles International","AREA":"0","COUNTY":"Los Angeles County","PERIMETER":"0","LOCID":"LAX","STATE_FIPS":"06","AIRPRTX020":"174","STATE":"CA","TOT_ENP":"30830900","the_geom":"0101000000000000E01D9A5DC000000000A5F84040"}},{"type": "Feature", "geometry": {"type":"Point","coordinates":[-118.451293945313,34.0158233642578]}, "properties": {"gid":"26","FEATURE":"Airport","FIPS":"06037","NAME":"Santa Monica Municipal","AREA":"0","COUNTY":"Los Angeles County","PERIMETER":"0","LOCID":"SMO","STATE_FIPS":"06","AIRPRTX020":"175","STATE":"CA","TOT_ENP":"436","the_geom":"010100000000000000E29C5DC00000008006024140"}},{"type": "Feature", "geometry": {"type":"Point","coordinates":[-118.489974975586,34.2098083496094]}, "properties": {"gid":"27","FEATURE":"Airport","FIPS":"06037","NAME":"Van Nuys","AREA":"0","COUNTY":"Los Angeles County","PERIMETER":"0","LOCID":"VNY","STATE_FIPS":"06","AIRPRTX020":"176","STATE":"CA","TOT_ENP":"1923","the_geom":"0101000000000000C05B9F5DC000000000DB1A4140"}},{"type": "Feature", "geometry": {"type":"Point","coordinates":[-119.120941162109,34.1202850341797]}, "properties": {"gid":"28","FEATURE":"Airport","FIPS":"06111","NAME":"Point Mugu Naval Air Station","AREA":"0","COUNTY":"Ventura County","PERIMETER":"0","LOCID":"NTD","STATE_FIPS":"06","AIRPRTX020":"177","STATE":"CA","TOT_ENP":"2351","the_geom":"010100000000000080BDC75DC000000080650F4140"}},{"type": "Feature", "geometry": {"type":"Point","coordinates":[-119.207214355469,34.2008018493652]}, "properties": {"gid":"29","FEATURE":"Airport","FIPS":"06111","NAME":"Oxnard","AREA":"0","COUNTY":"Ventura County","PERIMETER":"0","LOCID":"OXR","STATE_FIPS":"06","AIRPRTX020":"178","STATE":"CA","TOT_ENP":"50722","the_geom":"01010000000000000043CD5DC0000000E0B3194140"}},{"type": "Feature", "geometry": {"type":"Point","coordinates":[-117.234870910645,34.0953521728516]}, "properties": {"gid":"30","FEATURE":"Airport","FIPS":"06071","NAME":"San Bernardino International","AREA":"0","COUNTY":"San Bernardino County","PERIMETER":"0","LOCID":"SBD","STATE_FIPS":"06","AIRPRTX020":"179","STATE":"CA","TOT_ENP":"1363","the_geom":"010100000000000020084F5DC000000080340C4140"}},{"type": "Feature", "geometry": {"type":"Point","coordinates":[-118.335189819336,33.9228401184082]}, "properties": {"gid":"31","FEATURE":"Airport","FIPS":"06037","NAME":"Jack Northrop Field\/Hawthorne Municipal","AREA":"0","COUNTY":"Los Angeles County","PERIMETER":"0","LOCID":"HHR","STATE_FIPS":"06","AIRPRTX020":"180","STATE":"CA","TOT_ENP":"414","the_geom":"0101000000000000C073955DC0000000A01FF64040"}},{"type": "Feature", "geometry": {"type":"Point","coordinates":[-120.627052307129,35.6728858947754]}, "properties": {"gid":"32","FEATURE":"Airport","FIPS":"06079","NAME":"Paso Robles Municipal","AREA":"0","COUNTY":"San Luis Obispo County","PERIMETER":"0","LOCID":"PRB","STATE_FIPS":"06","AIRPRTX020":"248","STATE":"CA","TOT_ENP":"260","the_geom":"0101000000000000A021285EC00000002021D64140"}},{"type": "Feature", "geometry": {"type":"Point","coordinates":[-117.601196289063,34.0559997558594]}, "properties": {"gid":"33","FEATURE":"Airport","FIPS":"06071","NAME":"Ontario International","AREA":"0","COUNTY":"San Bernardino County","PERIMETER":"0","LOCID":"ONT","STATE_FIPS":"06","AIRPRTX020":"181","STATE":"CA","TOT_ENP":"3125590","the_geom":"0101000000000000007A665DC0000000002B074140"}},{"type": "Feature", "geometry": {"type":"Point","coordinates":[-122.115043640137,37.4611206054688]}, "properties": {"gid":"34","FEATURE":"Airport","FIPS":"06081","NAME":"Palo Alto Airport Of Santa Clara County","AREA":"0","COUNTY":"San Mateo County","PERIMETER":"0","LOCID":"PAO","STATE_FIPS":"06","AIRPRTX020":"316","STATE":"CA","TOT_ENP":"834","the_geom":"0101000000000000E05C875EC00000000006BB4240"}},{"type": "Feature", "geometry": {"type":"Point","coordinates":[-119.392890930176,36.3186683654785]}, "properties": {"gid":"35","FEATURE":"Airport","FIPS":"06107","NAME":"Visalia Municipal","AREA":"0","COUNTY":"Tulare County","PERIMETER":"0","LOCID":"VIS","STATE_FIPS":"06","AIRPRTX020":"249","STATE":"CA","TOT_ENP":"10255","the_geom":"01010000000000002025D95DC000000020CA284240"}},{"type": "Feature", "geometry": {"type":"Point","coordinates":[-118.358497619629,34.2006187438965]}, "properties": {"gid":"36","FEATURE":"Airport","FIPS":"06037","NAME":"Burbank-Glendale-Pasadena","AREA":"0","COUNTY":"Los Angeles County","PERIMETER":"0","LOCID":"BUR","STATE_FIPS":"06","AIRPRTX020":"182","STATE":"CA","TOT_ENP":"2376640","the_geom":"0101000000000000A0F1965DC0000000E0AD194140"}},{"type": "Feature", "geometry": {"type":"Point","coordinates":[-122.249526977539,37.5118560791016]}, "properties": {"gid":"37","FEATURE":"Airport","FIPS":"06081","NAME":"San Carlos","AREA":"0","COUNTY":"San Mateo County","PERIMETER":"0","LOCID":"SQL","STATE_FIPS":"06","AIRPRTX020":"317","STATE":"CA","TOT_ENP":"379","the_geom":"010100000000000040F88F5EC00000008084C14240"}},{"type": "Feature", "geometry": {"type":"Point","coordinates":[-119.718139648438,36.776195526123]}, "properties": {"gid":"38","FEATURE":"Airport","FIPS":"06019","NAME":"Fresno Yosemite International","AREA":"0","COUNTY":"Fresno County","PERIMETER":"0","LOCID":"FAT","STATE_FIPS":"06","AIRPRTX020":"250","STATE":"CA","TOT_ENP":"520303","the_geom":"010100000000000000F6ED5DC0000000605A634240"}},{"type": "Feature", "geometry": {"type":"Point","coordinates":[-117.379463195801,34.5932235717773]}, "properties": {"gid":"39","FEATURE":"Airport","FIPS":"06071","NAME":"Southern California Logistics","AREA":"0","COUNTY":"San Bernardino County","PERIMETER":"0","LOCID":"VCV","STATE_FIPS":"06","AIRPRTX020":"183","STATE":"CA","TOT_ENP":"45251","the_geom":"01010000000000002049585DC0000000C0EE4B4140"}},{"type": "Feature", "geometry": {"type":"Point","coordinates":[-122.374839782715,37.6190032958984]}, "properties": {"gid":"40","FEATURE":"Airport","FIPS":"06081","NAME":"San Francisco International","AREA":"0","COUNTY":"San Mateo County","PERIMETER":"0","LOCID":"SFO","STATE_FIPS":"06","AIRPRTX020":"318","STATE":"CA","TOT_ENP":"19250000","the_geom":"010100000000000060FD975EC0000000803BCF4240"}},{"type": "Feature", "geometry": {"type":"Point","coordinates":[-122.220718383789,37.7212905883789]}, "properties": {"gid":"41","FEATURE":"Airport","FIPS":"06001","NAME":"Metropolitan Oakland International","AREA":"0","COUNTY":"Alameda County","PERIMETER":"0","LOCID":"OAK","STATE_FIPS":"06","AIRPRTX020":"319","STATE":"CA","TOT_ENP":"4850520","the_geom":"010100000000000040208E5EC00000004053DC4240"}},{"type": "Feature", "geometry": {"type":"Point","coordinates":[-117.215309143066,32.69921875]}, "properties": {"gid":"42","FEATURE":"Airport","FIPS":"06073","NAME":"North Island Naval Air Station\/Halsey Field","AREA":"0","COUNTY":"San Diego County","PERIMETER":"0","LOCID":"NZY","STATE_FIPS":"06","AIRPRTX020":"119","STATE":"CA","TOT_ENP":"6081","the_geom":"0101000000000000A0C74D5DC00000000080594040"}},{"type": "Feature", "geometry": {"type":"Point","coordinates":[-122.280693054199,38.2131958007813]}, "properties": {"gid":"43","FEATURE":"Airport","FIPS":"06055","NAME":"Napa County","AREA":"0","COUNTY":"Napa County","PERIMETER":"0","LOCID":"APC","STATE_FIPS":"06","AIRPRTX020":"320","STATE":"CA","TOT_ENP":"255","the_geom":"0101000000000000E0F6915EC0000000004A1B4340"}},{"type": "Feature", "geometry": {"type":"Point","coordinates":[-117.189659118652,32.7335548400879]}, "properties": {"gid":"44","FEATURE":"Airport","FIPS":"06073","NAME":"San Diego International-Lindbergh Field","AREA":"0","COUNTY":"San Diego County","PERIMETER":"0","LOCID":"SAN","STATE_FIPS":"06","AIRPRTX020":"120","STATE":"CA","TOT_ENP":"7636620","the_geom":"010100000000000060234C5DC000000020E55D4040"}},{"type": "Feature", "geometry": {"type":"Point","coordinates":[-120.95442199707,37.6258163452148]}, "properties": {"gid":"45","FEATURE":"Airport","FIPS":"06099","NAME":"Modesto City-County-Harry Sham Field","AREA":"0","COUNTY":"Stanislaus County","PERIMETER":"0","LOCID":"MOD","STATE_FIPS":"06","AIRPRTX020":"321","STATE":"CA","TOT_ENP":"28314","the_geom":"010100000000000040153D5EC0000000C01AD04240"}},{"type": "Feature", "geometry": {"type":"Point","coordinates":[-117.13956451416,32.8157348632813]}, "properties": {"gid":"46","FEATURE":"Airport","FIPS":"06073","NAME":"Montgomery Field","AREA":"0","COUNTY":"San Diego County","PERIMETER":"0","LOCID":"MYF","STATE_FIPS":"06","AIRPRTX020":"121","STATE":"CA","TOT_ENP":"10642","the_geom":"0101000000000000A0EE485DC0000000006A684040"}},{"type": "Feature", "geometry": {"type":"Point","coordinates":[-121.359390258789,38.0915870666504]}, "properties": {"gid":"47","FEATURE":"Airport","FIPS":"06077","NAME":"Kingdon Airpark","AREA":"0","COUNTY":"San Joaquin County","PERIMETER":"0","LOCID":"O20","STATE_FIPS":"06","AIRPRTX020":"322","STATE":"CA","TOT_ENP":"435","the_geom":"01010000000000004000575EC000000020B90B4340"}},{"type": "Feature", "geometry": {"type":"Point","coordinates":[-117.142532348633,32.8683815002441]}, "properties": {"gid":"48","FEATURE":"Airport","FIPS":"06073","NAME":"Miramar Marine Corps Air Station\/Mitscher Field","AREA":"0","COUNTY":"San Diego County","PERIMETER":"0","LOCID":"NKX","STATE_FIPS":"06","AIRPRTX020":"122","STATE":"CA","TOT_ENP":"1107","the_geom":"0101000000000000401F495DC000000020276F4040"}},{"type": "Feature", "geometry": {"type":"Point","coordinates":[-121.927459716797,38.2626914978027]}, "properties": {"gid":"49","FEATURE":"Airport","FIPS":"06095","NAME":"Travis Air Force Base","AREA":"0","COUNTY":"Solano County","PERIMETER":"0","LOCID":"SUU","STATE_FIPS":"06","AIRPRTX020":"323","STATE":"CA","TOT_ENP":"2392","the_geom":"0101000000000000805B7B5EC0000000E09F214340"}},{"type": "Feature", "geometry": {"type":"Point","coordinates":[-121.493469238281,38.512523651123]}, "properties": {"gid":"50","FEATURE":"Airport","FIPS":"06067","NAME":"Sacramento Executive","AREA":"0","COUNTY":"Sacramento County","PERIMETER":"0","LOCID":"SAC","STATE_FIPS":"06","AIRPRTX020":"324","STATE":"CA","TOT_ENP":"634","the_geom":"010100000000000000955F5EC0000000609A414340"}},{"type": "Feature", "geometry": {"type":"Point","coordinates":[-115.578742980957,32.8342208862305]}, "properties": {"gid":"51","FEATURE":"Airport","FIPS":"06025","NAME":"Imperial County","AREA":"0","COUNTY":"Imperial County","PERIMETER":"0","LOCID":"IPL","STATE_FIPS":"06","AIRPRTX020":"124","STATE":"CA","TOT_ENP":"24834","the_geom":"0101000000000000200AE55CC0000000C0C76A4040"}},{"type": "Feature", "geometry": {"type":"Point","coordinates":[-120.414558410645,38.0304222106934]}, "properties": {"gid":"52","FEATURE":"Airport","FIPS":"06109","NAME":"Columbia","AREA":"0","COUNTY":"Tuolumne County","PERIMETER":"0","LOCID":"O22","STATE_FIPS":"06","AIRPRTX020":"325","STATE":"CA","TOT_ENP":"321","the_geom":"010100000000000020881A5EC0000000E0E4034340"}},{"type": "Feature", "geometry": {"type":"Point","coordinates":[-121.858421325684,39.7953834533691]}, "properties": {"gid":"53","FEATURE":"Airport","FIPS":"06007","NAME":"Chico Municipal","AREA":"0","COUNTY":"Butte County","PERIMETER":"0","LOCID":"CIC","STATE_FIPS":"06","AIRPRTX020":"393","STATE":"CA","TOT_ENP":"30004","the_geom":"010100000000000060F0765EC000000020CFE54340"}} ]}